District,Latitude,Longitude
Ba Dinh,21.0358791,105.8121223
Bac  Tu Liem,21.0725934,105.7257057
Cau Giay,21.0286755,105.7558941
Dong Da,21.0147066,105.8030133
Ha Dong,20.9528973,105.6822867
Hai Ba Trung,21.0251735,105.8474819
Hoan Kiem,21.0303901,105.8374124
Hoang Mai,20.974852,105.8229187
Long Bien,21.0370462,105.8200881
Nam Tu Liem,21.019538,105.7265717
Tay Ho,21.0691904,105.7857148
Thanh Xuan,20.9950321,105.7996267
